{"type":"FeatureCollection","features":[{"type":"Feature","geometry":{"type":"Point","coordinates":[144.96515323,-37.81349441]},"properties":{"location_id":1,"sensor_description":"Bourke Street Mall (North)","sensor_name":"Bou292_T","installation_date":"2009-03-24","note":null,"location_type":"Outdoor","status":"A","direction_1":"East","direction_2":"West","latitude":-37.81349441,"longitude":144.96515323}},{"type":"Feature","geometry":{"type":"Point","coordinates":[144.96429485,-37.81101524]},"properties":{"location_id":3,"sensor_description":"Melbourne Central","sensor_name":"Swa295_T","installation_date":"2009-03-25","note":null,"location_type":"Outdoor","status":"A","direction_1":"North","direction_2":"South","latitude":-37.81101524,"longitude":144.96429485}},{"type":"Feature","geometry":{"type":"Point","coordinates":[144.96787656,-37.81874249]},"properties":{"location_id":5,"sensor_description":"Princes Bridge","sensor_name":"PriNW_T","installation_date":"2009-03-26","note":"Replace with: 00:6e:02:01:9e:54","location_type":"Outdoor","status":"A","direction_1":"North","direction_2":"South","latitude":-37.81874249,"longitude":144.96787656}},{"type":"Feature","geometry":{"type":"Point","coordinates":[144.97169395,-37.81862929]},"properties":{"location_id":7,"sensor_description":"Birrarung Marr","sensor_name":"FedPed_T","installation_date":"2014-12-17","note":null,"location_type":"Outdoor","status":"A","direction_1":"East","direction_2":"West","latitude":-37.81862929,"longitude":144.97169395}},{"type":"Feature","geometry":{"type":"Point","coordinates":[144.95102555,-37.81982992]},"properties":{"location_id":9,"sensor_description":"Southern Cross Station","sensor_name":"Col700_T","installation_date":"2009-03-23","note":null,"location_type":"Outdoor","status":"A","direction_1":"East","direction_2":"West","latitude":-37.81982992,"longitude":144.95102555}},{"type":"Feature","geometry":{"type":"Point","coordinates":[144.94292398,-37.81457988]},"properties":{"location_id":12,"sensor_description":"New Quay","sensor_name":"NewQ_T","installation_date":"2009-01-21","note":null,"location_type":"Outdoor","status":"A","direction_1":"East","direction_2":"West","latitude":-37.81457988,"longitude":144.94292398}},{"type":"Feature","geometry":{"type":"Point","coordinates":[144.97323591,-37.81362543]},"properties":{"location_id":17,"sensor_description":"Collins Place (South)","sensor_name":"Col15_T","installation_date":"2009-03-30","note":"Device is upgraded in 26\/02\/2020","location_type":"Outdoor","status":"A","direction_1":"East","direction_2":"West","latitude":-37.81362543,"longitude":144.97323591}},{"type":"Feature","geometry":{"type":"Point","coordinates":[144.97305353,-37.81344862]},"properties":{"location_id":18,"sensor_description":"Collins Place (North)","sensor_name":"Col12_T","installation_date":"2009-03-30","note":null,"location_type":"Outdoor","status":"A","direction_1":"East","direction_2":"West","latitude":-37.81344862,"longitude":144.97305353}},{"type":"Feature","geometry":{"type":"Point","coordinates":[144.96778757,-37.81244703]},"properties":{"location_id":21,"sensor_description":"Bourke St-Russell St (West)","sensor_name":"Rus180_T","installation_date":"2013-09-02","note":null,"location_type":"Outdoor","status":"A","direction_1":"North","direction_2":"South","latitude":-37.81244703,"longitude":144.96778757}},{"type":"Feature","geometry":{"type":"Point","coordinates":[144.95452748,-37.81909256]},"properties":{"location_id":23,"sensor_description":"Spencer St-Collins St (South)","sensor_name":"Col623_T","installation_date":"2013-09-02","note":"Pushbox Upgrade, 25\/07\/2023","location_type":"Outdoor","status":"A","direction_1":"East","direction_2":"West","latitude":-37.81909256,"longitude":144.95452748}},{"type":"Feature","geometry":{"type":"Point","coordinates":[144.96879309,-37.82129925]},"properties":{"location_id":28,"sensor_description":"The Arts Centre","sensor_name":"VAC_T","installation_date":"2013-08-23","note":null,"location_type":"Outdoor","status":"A","direction_1":"North","direction_2":"South","latitude":-37.82129925,"longitude":144.96879309}},{"type":"Feature","geometry":{"type":"Point","coordinates":[144.96656806,-37.8112185]},"properties":{"location_id":30,"sensor_description":"Lonsdale St (South)","sensor_name":"Lon189_T","installation_date":"2013-10-14","note":"Pushbox Upgrade, 20\/07\/2023","location_type":"Outdoor","status":"A","direction_1":"East","direction_2":"West","latitude":-37.8112185,"longitude":144.96656806}},{"type":"Feature","geometry":{"type":"Point","coordinates":[144.96658911,-37.80169681]},"properties":{"location_id":31,"sensor_description":"Lygon St (West)","sensor_name":"Lyg161_T","installation_date":"2013-10-10","note":"Pushbox Upgrade, 25\/07\/2023","location_type":"Outdoor","status":"A","direction_1":"North","direction_2":"South","latitude":-37.80169681,"longitude":144.96658911}},{"type":"Feature","geometry":{"type":"Point","coordinates":[144.97227587,-37.80999341]},"properties":{"location_id":40,"sensor_description":"Lonsdale St-Spring St (West)","sensor_name":"Spr201_T","installation_date":"2015-01-19","note":"Pushbox Upgrade, 03\/08\/2023","location_type":"Outdoor","status":"A","direction_1":"North","direction_2":"South","latitude":-37.80999341,"longitude":144.97227587}},{"type":"Feature","geometry":{"type":"Point","coordinates":[144.96386412,-37.80008566]},"properties":{"location_id":42,"sensor_description":"Grattan St-Swanston St (West)","sensor_name":"UM1_T","installation_date":"2015-04-15","note":null,"location_type":"Outdoor","status":"A","direction_1":"North","direction_2":"South","latitude":-37.80008566,"longitude":144.96386412}},{"type":"Feature","geometry":{"type":"Point","coordinates":[144.96440378,-37.79690473]},"properties":{"location_id":44,"sensor_description":"Tin Alley-Swanston St (West)","sensor_name":"UM3_T","installation_date":"2015-04-15","note":"Pushbox Upgrade, 30\/06\/2023","location_type":"Outdoor","status":"A","direction_1":"North","direction_2":"South","latitude":-37.79690473,"longitude":144.96440378}},{"type":"Feature","geometry":{"type":"Point","coordinates":[144.95866697,-37.80631581]},"properties":{"location_id":48,"sensor_description":"QVM-Queen St (East)","sensor_name":"QVMQ_T","installation_date":"2017-10-02","note":"Pushbox Upgrade, 03\/07\/2023","location_type":"Outdoor","status":"A","direction_1":"East","direction_2":"West","latitude":-37.80631581,"longitude":144.95866697}},{"type":"Feature","geometry":{"type":"Point","coordinates":[144.96134331,-37.80988941]},"properties":{"location_id":55,"sensor_description":"Elizabeth St-La Trobe St (East)","sensor_name":"Eli380_T","installation_date":"2018-07-19","note":null,"location_type":"Outdoor","status":"A","direction_1":"North","direction_2":"South","latitude":-37.80988941,"longitude":144.96134331}},{"type":"Feature","geometry":{"type":"Point","coordinates":[144.95025594,-37.8176735]},"properties":{"location_id":57,"sensor_description":"Bourke St Bridge","sensor_name":"BouBri_T","installation_date":"2018-08-13","note":null,"location_type":"Outdoor","status":"A","direction_1":"East","direction_2":"West","latitude":-37.8176735,"longitude":144.95025594}},{"type":"Feature","geometry":{"type":"Point","coordinates":[144.96309114,-37.80767455]},"properties":{"location_id":61,"sensor_description":"RMIT Building 14","sensor_name":"RMIT14_T","installation_date":"2019-06-28","note":null,"location_type":"Outdoor","status":"A","direction_1":"North","direction_2":"South","latitude":-37.80767455,"longitude":144.96309114}},{"type":"Feature","geometry":{"type":"Point","coordinates":[144.96216521,-37.80996494]},"properties":{"location_id":62,"sensor_description":"La Trobe St (North)","sensor_name":"Lat224_T","installation_date":"2019-09-25","note":null,"location_type":"Outdoor","status":"A","direction_1":"East","direction_2":"West","latitude":-37.80996494,"longitude":144.96216521}},{"type":"Feature","geometry":{"type":"Point","coordinates":[144.96675571,-37.81333081]},"properties":{"location_id":63,"sensor_description":"231 Bourke St","sensor_name":"Bou231_T","installation_date":"2020-01-07","note":null,"location_type":"Outdoor","status":"A","direction_1":"East","direction_2":"West","latitude":-37.81333081,"longitude":144.96675571}},{"type":"Feature","geometry":{"type":"Point","coordinates":[144.96559144,-37.81687226]},"properties":{"location_id":69,"sensor_description":"Flinders Ln -Degraves St (Crossing)","sensor_name":"FLDegC_T","installation_date":"2020-06-03","note":null,"location_type":"Outdoor","status":"A","direction_1":"North","direction_2":"South","latitude":-37.81687226,"longitude":144.96559144}},{"type":"Feature","geometry":{"type":"Point","coordinates":[144.97136962,-37.81235775]},"properties":{"location_id":71,"sensor_description":"Westwood Place","sensor_name":"WestWP_T","installation_date":"2020-10-16","note":null,"location_type":"Outdoor","status":"A","direction_1":"North","direction_2":"South","latitude":-37.81235775,"longitude":144.97136962}},{"type":"Feature","geometry":{"type":"Point","coordinates":[144.9446508,-37.81471642]},"properties":{"location_id":78,"sensor_description":"Harbour Esplanade (West) - Bike Path","sensor_name":"HarEsB_T","installation_date":"2021-03-30","note":null,"location_type":"Outdoor","status":"A","direction_1":"North","direction_2":"South","latitude":-37.81471642,"longitude":144.9446508}},{"type":"Feature","geometry":{"type":"Point","coordinates":[144.96131206,-37.8254567]},"properties":{"location_id":80,"sensor_description":"Boyd Commuinty - Rear door","sensor_name":"BoCoR_T","installation_date":"2021-03-30","note":null,"location_type":"Indoor","status":"A","direction_1":"In","direction_2":"Out","latitude":-37.8254567,"longitude":144.96131206}},{"type":"Feature","geometry":{"type":"Point","coordinates":[144.96503383,-37.81798049]},"properties":{"location_id":84,"sensor_description":"Elizabeth St - Flinders St (East) - New footpath","sensor_name":"ElFi_T","installation_date":"2021-12-03","note":null,"location_type":"Outdoor","status":"A","direction_1":"North","direction_2":"South","latitude":-37.81798049,"longitude":144.96503383}},{"type":"Feature","geometry":{"type":"Point","coordinates":[144.92973378,-37.79432415]},"properties":{"location_id":85,"sensor_description":"Macaulay Rd (North)","sensor_name":"488Mac_T","installation_date":"2021-12-21","note":null,"location_type":"Outdoor","status":"A","direction_1":"East","direction_2":"West","latitude":-37.79432415,"longitude":144.92973378}},{"type":"Feature","geometry":{"type":"Point","coordinates":[144.96115421,-37.82556207]},"properties":{"location_id":90,"sensor_description":"Boyd Community Hub- Library","sensor_name":"BoCoL_T","installation_date":"2015-08-11","note":null,"location_type":"Indoor","status":"A","direction_1":"In","direction_2":"Out","latitude":-37.82556207,"longitude":144.96115421}},{"type":"Feature","geometry":{"type":"Point","coordinates":[144.94029861,-37.8200188]},"properties":{"location_id":91,"sensor_description":"Library at The Dock-North side","sensor_name":"DocLib1_T","installation_date":"2015-06-05","note":null,"location_type":"Indoor","status":"A","direction_1":"In","direction_2":"Out","latitude":-37.8200188,"longitude":144.94029861}},{"type":"Feature","geometry":{"type":"Point","coordinates":[144.94039584,-37.82016286]},"properties":{"location_id":92,"sensor_description":"Library at The Dock-South side","sensor_name":"DocLib2_T","installation_date":"2015-06-05","note":null,"location_type":"Indoor","status":"A","direction_1":"In","direction_2":"Out","latitude":-37.82016286,"longitude":144.94039584}},{"type":"Feature","geometry":{"type":"Point","coordinates":[144.98638807,-37.81498411]},"properties":{"location_id":93,"sensor_description":"East Melbourne Library","sensor_name":"EastLib_T","installation_date":"2013-02-02","note":null,"location_type":"Indoor","status":"A","direction_1":"In","direction_2":"Out","latitude":-37.81498411,"longitude":144.98638807}},{"type":"Feature","geometry":{"type":"Point","coordinates":[144.96700886,-37.81417186]},"properties":{"location_id":98,"sensor_description":"Little Collins Pop-up Library","sensor_name":"LiCoPop_T","installation_date":"2021-02-02","note":null,"location_type":"Indoor","status":"A","direction_1":"In","direction_2":"Out","latitude":-37.81417186,"longitude":144.96700886}},{"type":"Feature","geometry":{"type":"Point","coordinates":[144.9286055,-37.7893527]},"properties":{"location_id":103,"sensor_description":"Kensington Town Hall","sensor_name":"KenTown_T","installation_date":"2018-02-02","note":"Device Replace","location_type":"Indoor","status":"A","direction_1":null,"direction_2":null,"latitude":-37.7893527,"longitude":144.9286055}},{"type":"Feature","geometry":{"type":"Point","coordinates":[144.95678789,-37.81295822]},"properties":{"location_id":108,"sensor_description":"William St - Little Lonsdale St (West)","sensor_name":"261Will_T","installation_date":"2022-10-08","note":null,"location_type":"Outdoor","status":"A","direction_1":"North","direction_2":"South","latitude":-37.81295822,"longitude":144.95678789}},{"type":"Feature","geometry":{"type":"Point","coordinates":[144.96564218,-37.802553]},"properties":{"location_id":112,"sensor_description":"Argyle Sq Park","sensor_name":"ArgSqBlix_T","installation_date":"2021-10-07","note":null,"location_type":"Outdoor Blix","status":"A","direction_1":null,"direction_2":null,"latitude":-37.802553,"longitude":144.96564218}},{"type":"Feature","geometry":{"type":"Point","coordinates":[144.96689264,-37.81334479]},"properties":{"location_id":113,"sensor_description":"Micro-labs Blix","sensor_name":"MicLBlix_T","installation_date":"2022-07-27","note":null,"location_type":"Outdoor Blix","status":"A","direction_1":null,"direction_2":null,"latitude":-37.81334479,"longitude":144.96689264}},{"type":"Feature","geometry":{"type":"Point","coordinates":[144.97270007,-37.83014349]},"properties":{"location_id":114,"sensor_description":"Shrine of rememberance-North-West","sensor_name":"ShrinNW_T","installation_date":"2022-10-14","note":null,"location_type":"Outdoor Blix","status":"A","direction_1":null,"direction_2":null,"latitude":-37.83014349,"longitude":144.97270007}},{"type":"Feature","geometry":{"type":"Point","coordinates":[144.97370743,-37.82985386]},"properties":{"location_id":115,"sensor_description":"Shrine of rememberance-North-East","sensor_name":"ShrinNE_T","installation_date":"2022-10-14","note":null,"location_type":"Outdoor Blix","status":"A","direction_1":null,"direction_2":null,"latitude":-37.82985386,"longitude":144.97370743}},{"type":"Feature","geometry":{"type":"Point","coordinates":[144.97932442,-37.81493732]},"properties":{"location_id":116,"sensor_description":"Fitzroy Garden Visitor Centre Cafe Verandah","sensor_name":"FitCafVis_T","installation_date":"2015-03-02","note":"Pushbox Upgrade, 30\/06\/2023","location_type":"Indoor","status":"A","direction_1":null,"direction_2":null,"latitude":-37.81493732,"longitude":144.97932442}},{"type":"Feature","geometry":{"type":"Point","coordinates":[144.97090877,-37.81629332]},"properties":{"location_id":117,"sensor_description":"114 Flinders Street Car Park Footpath","sensor_name":"Fli114F_T","installation_date":"2022-12-06","note":null,"location_type":"Outdoor","status":"A","direction_1":"East","direction_2":"West","latitude":-37.81629332,"longitude":144.97090877}},{"type":"Feature","geometry":{"type":"Point","coordinates":[144.97090512,-37.81632783]},"properties":{"location_id":118,"sensor_description":"114 Flinders Street Car Park Crossing","sensor_name":"Fli114C_T","installation_date":"2022-12-06","note":null,"location_type":"Outdoor","status":"A","direction_1":"North","direction_2":"South","latitude":-37.81632783,"longitude":144.97090512}},{"type":"Feature","geometry":{"type":"Point","coordinates":[144.96944609,-37.81788176]},"properties":{"location_id":119,"sensor_description":"Pop Up Library - Crossbar - Federation Square","sensor_name":"PopLibFed_T","installation_date":"2022-01-25","note":null,"location_type":"Indoor","status":"A","direction_1":null,"direction_2":null,"latitude":-37.81788176,"longitude":144.96944609}},{"type":"Feature","geometry":{"type":"Point","coordinates":[144.97329734,-37.81753741]},"properties":{"location_id":123,"sensor_description":"Birrarung Marr East - Batman Ave Bridge Entry","sensor_name":"BirBridge_T","installation_date":"2023-06-02","note":"<Null>","location_type":"Outdoor","status":"A","direction_1":"East","direction_2":"West","latitude":-37.81753741,"longitude":144.97329734}},{"type":"Feature","geometry":{"type":"Point","coordinates":[144.97339462,-37.81757355]},"properties":{"location_id":125,"sensor_description":"Birrarung Marr - Batman Avenue","sensor_name":"BirBatBlix_T","installation_date":"2023-03-23","note":null,"location_type":"Outdoor Blix","status":"A","direction_1":null,"direction_2":null,"latitude":-37.81757355,"longitude":144.97339462}},{"type":"Feature","geometry":{"type":"Point","coordinates":[144.97420258,-37.83093739]},"properties":{"location_id":129,"sensor_description":"Shrine of rememberance-South-East","sensor_name":"ShrineSE_T","installation_date":"2023-09-20","note":null,"location_type":"Outdoor Blix","status":"A","direction_1":null,"direction_2":null,"latitude":-37.83093739,"longitude":144.97420258}},{"type":"Feature","geometry":{"type":"Point","coordinates":[144.94126826,-37.8204637]},"properties":{"location_id":130,"sensor_description":"I-Hub 892 Collins Street","sensor_name":"Col892T","installation_date":"2023-09-25","note":null,"location_type":"Outdoor","status":"A","direction_1":null,"direction_2":null,"latitude":-37.8204637,"longitude":144.94126826}},{"type":"Feature","geometry":{"type":"Point","coordinates":[144.95758725,-37.82009057]},"properties":{"location_id":131,"sensor_description":"I-Hub Corner of King Street and Flinders Street (2-6 King)","sensor_name":"King2_T","installation_date":"2023-09-25","note":null,"location_type":"Outdoor","status":"A","direction_1":null,"direction_2":null,"latitude":-37.82009057,"longitude":144.95758725}},{"type":"Feature","geometry":{"type":"Point","coordinates":[144.95303935,-37.81694221]},"properties":{"location_id":134,"sensor_description":"I-Hub Southern Cross Station - Bourke Street Entrance - North","sensor_name":"Spen201_T","installation_date":"2023-09-25","note":null,"location_type":"Outdoor","status":"A","direction_1":null,"direction_2":null,"latitude":-37.81694221,"longitude":144.95303935}},{"type":"Feature","geometry":{"type":"Point","coordinates":[144.95319102,-37.8172861]},"properties":{"location_id":135,"sensor_description":"I-Hub Southern Cross Station - Bourke Street Entrance - South","sensor_name":"Spen161_T","installation_date":"2023-09-25","note":null,"location_type":"Outdoor","status":"A","direction_1":null,"direction_2":null,"latitude":-37.8172861,"longitude":144.95319102}},{"type":"Feature","geometry":{"type":"Point","coordinates":[144.95449198,-37.81887963]},"properties":{"location_id":24,"sensor_description":"Spencer St-Collins St (North)","sensor_name":"Col620_T","installation_date":"2013-09-02","note":null,"location_type":"Outdoor","status":"A","direction_1":"East","direction_2":"West","latitude":-37.81887963,"longitude":144.95449198}},{"type":"Feature","geometry":{"type":"Point","coordinates":[144.95604426,-37.82401776]},"properties":{"location_id":25,"sensor_description":"Melbourne Convention Exhibition Centre","sensor_name":"MCEC_T","installation_date":"2013-08-28","note":null,"location_type":"Outdoor","status":"A","direction_1":"East","direction_2":"West","latitude":-37.82401776,"longitude":144.95604426}},{"type":"Feature","geometry":{"type":"Point","coordinates":[144.96121062,-37.81652527]},"properties":{"location_id":36,"sensor_description":"Queen St (West)","sensor_name":"Que85_T","installation_date":"2015-01-20","note":"Pushbox Upgrade, 03\/08\/2023","location_type":"Outdoor","status":"A","direction_1":"North","direction_2":"South","latitude":-37.81652527,"longitude":144.96121062}},{"type":"Feature","geometry":{"type":"Point","coordinates":[144.96671451,-37.80310271]},"properties":{"location_id":37,"sensor_description":"Lygon St (East)","sensor_name":"Lyg260_T","installation_date":"2015-02-11","note":"Pushbox Upgrade, 30\/06\/2023","location_type":"Outdoor","status":"A","direction_1":"North","direction_2":"South","latitude":-37.80310271,"longitude":144.96671451}},{"type":"Feature","geometry":{"type":"Point","coordinates":[144.96689733,-37.81668634]},"properties":{"location_id":41,"sensor_description":"Flinders La-Swanston St (West)","sensor_name":"Swa31","installation_date":"2017-06-29","note":null,"location_type":"Outdoor","status":"A","direction_1":"North","direction_2":"South","latitude":-37.81668634,"longitude":144.96689733}},{"type":"Feature","geometry":{"type":"Point","coordinates":[144.96609379,-37.81414075]},"properties":{"location_id":45,"sensor_description":"Little Collins St-Swanston St (East)","sensor_name":"Swa148_T","installation_date":"2017-06-29","note":"Pushbox Upgrade, 03\/08\/2023","location_type":"Outdoor","status":"A","direction_1":"North","direction_2":"South","latitude":-37.81414075,"longitude":144.96609379}},{"type":"Feature","geometry":{"type":"Point","coordinates":[144.9615673,-37.80240719]},"properties":{"location_id":46,"sensor_description":"Pelham St (South)","sensor_name":"Pel147_T","installation_date":"2017-07-10","note":null,"location_type":"Outdoor","status":"A","direction_1":"East","direction_2":"West","latitude":-37.80240719,"longitude":144.9615673}},{"type":"Feature","geometry":{"type":"Point","coordinates":[144.95956055,-37.80730068]},"properties":{"location_id":49,"sensor_description":"QVM-Therry St (South)","sensor_name":"Eli501_T","installation_date":"2017-11-29","note":"Pushbox Upgrade, 20\/07\/2023","location_type":"Outdoor","status":"A","direction_1":"East","direction_2":"West","latitude":-37.80730068,"longitude":144.95956055}},{"type":"Feature","geometry":{"type":"Point","coordinates":[144.96721013,-37.79808192]},"properties":{"location_id":50,"sensor_description":"Faraday St-Lygon St (West)","sensor_name":"Lyg309_T","installation_date":"2017-11-30","note":"Pushbox Upgrade, 25\/07\/2023","location_type":"Outdoor","status":"A","direction_1":"North","direction_2":"South","latitude":-37.79808192,"longitude":144.96721013}},{"type":"Feature","geometry":{"type":"Point","coordinates":[144.9619401,-37.81252157]},"properties":{"location_id":52,"sensor_description":"Elizabeth St-Lonsdale St (South)","sensor_name":"Eli263_T","installation_date":"2017-07-31","note":"Pushbox Upgrade, 25\/07\/2023","location_type":"Outdoor","status":"A","direction_1":"East","direction_2":"West","latitude":-37.81252157,"longitude":144.9619401}},{"type":"Feature","geometry":{"type":"Point","coordinates":[144.96153311,-37.81234775]},"properties":{"location_id":56,"sensor_description":"Lonsdale St - Elizabeth St (North)","sensor_name":"Lon364_T","installation_date":"2018-07-25","note":null,"location_type":"Outdoor","status":"A","direction_1":"East","direction_2":"West","latitude":-37.81234775,"longitude":144.96153311}},{"type":"Feature","geometry":{"type":"Point","coordinates":[144.9668064,-37.81569416]},"properties":{"location_id":65,"sensor_description":"Swanston St - City Square","sensor_name":"SwaCs_T","installation_date":"2020-03-12","note":null,"location_type":"Outdoor","status":"A","direction_1":"North","direction_2":"South","latitude":-37.81569416,"longitude":144.9668064}},{"type":"Feature","geometry":{"type":"Point","coordinates":[144.96444294,-37.81057846]},"properties":{"location_id":66,"sensor_description":"State Library - New","sensor_name":"QVN_T","installation_date":"2020-04-06","note":null,"location_type":"Outdoor","status":"A","direction_1":"North","direction_2":"South","latitude":-37.81057846,"longitude":144.96444294}},{"type":"Feature","geometry":{"type":"Point","coordinates":[144.96562569,-37.81688755]},"properties":{"location_id":67,"sensor_description":"Flinders Ln -Degraves St (South)","sensor_name":"FLDegS_T","installation_date":"2020-06-03","note":null,"location_type":"Outdoor","status":"A","direction_1":"East","direction_2":"West","latitude":-37.81688755,"longitude":144.96562569}},{"type":"Feature","geometry":{"type":"Point","coordinates":[144.96559789,-37.8168479]},"properties":{"location_id":68,"sensor_description":"Flinders Ln -Degraves St (North)","sensor_name":"FLDegN_T","installation_date":"2020-06-03","note":null,"location_type":"Outdoor","status":"A","direction_1":"East","direction_2":"West","latitude":-37.8168479,"longitude":144.96559789}},{"type":"Feature","geometry":{"type":"Point","coordinates":[144.94946228,-37.80456984]},"properties":{"location_id":70,"sensor_description":"Errol Street (East)","sensor_name":"Errol20_T","installation_date":"2020-10-12","note":null,"location_type":"Outdoor","status":"A","direction_1":"North","direction_2":"South","latitude":-37.80456984,"longitude":144.94946228}},{"type":"Feature","geometry":{"type":"Point","coordinates":[144.97467661,-37.81515276]},"properties":{"location_id":75,"sensor_description":"Spring St- Flinders st (West)","sensor_name":"SprFli_T","installation_date":"2020-12-18","note":null,"location_type":"Outdoor","status":"A","direction_1":"North","direction_2":"South","latitude":-37.81515276,"longitude":144.97467661}},{"type":"Feature","geometry":{"type":"Point","coordinates":[144.94433026,-37.81441438]},"properties":{"location_id":77,"sensor_description":"Harbour Esplanade (West) - Pedestrian path","sensor_name":"HarEsP_T","installation_date":"2021-03-25","note":null,"location_type":"Outdoor","status":"A","direction_1":"North","direction_2":"South","latitude":-37.81441438,"longitude":144.94433026}},{"type":"Feature","geometry":{"type":"Point","coordinates":[144.96084343,-37.82579138]},"properties":{"location_id":81,"sensor_description":"Boyd Commuinty - Front door","sensor_name":"BoCoF_T","installation_date":"2021-03-30","note":null,"location_type":"Indoor","status":"A","direction_1":"In","direction_2":"Out","latitude":-37.82579138,"longitude":144.96084343}},{"type":"Feature","geometry":{"type":"Point","coordinates":[144.96687704,-37.81330972]},"properties":{"location_id":88,"sensor_description":"Micro-Labs","sensor_name":"MicLab_T","installation_date":"2022-07-28","note":null,"location_type":"Indoor","status":"A","direction_1":"In","direction_2":"Out","latitude":-37.81330972,"longitude":144.96687704}},{"type":"Feature","geometry":{"type":"Point","coordinates":[144.97926569,-37.81488315]},"properties":{"location_id":95,"sensor_description":"Fitzroy Garden Visitor Centre External","sensor_name":"FitGarExtVisExt_T","installation_date":"2015-03-02","note":"Pushbox Upgrade, 30\/06\/2023","location_type":"Indoor","status":"A","direction_1":null,"direction_2":null,"latitude":-37.81488315,"longitude":144.97926569}},{"type":"Feature","geometry":{"type":"Point","coordinates":[144.96623279,-37.81462143]},"properties":{"location_id":99,"sensor_description":"Town Hall Visitor Centre","sensor_name":"TownVis_T","installation_date":"2020-02-02","note":"Pushbox Upgrade, 03\/08\/2023","location_type":"Indoor","status":"A","direction_1":null,"direction_2":null,"latitude":-37.81462143,"longitude":144.96623279}},{"type":"Feature","geometry":{"type":"Point","coordinates":[144.94977011,-37.80340543]},"properties":{"location_id":102,"sensor_description":"North Melbourne Library","sensor_name":"NtMelLib_T","installation_date":"2018-02-02","note":null,"location_type":"Indoor","status":"A","direction_1":"In","direction_2":"Out","latitude":-37.80340543,"longitude":144.94977011}},{"type":"Feature","geometry":{"type":"Point","coordinates":[144.9652825,-37.79861828]},"properties":{"location_id":105,"sensor_description":"Kathleen Syme Library Lib","sensor_name":"KatLib2_T","installation_date":"2018-02-02","note":null,"location_type":"Indoor","status":"A","direction_1":"In","direction_2":"Out","latitude":-37.79861828,"longitude":144.9652825}},{"type":"Feature","geometry":{"type":"Point","coordinates":[144.96510921,-37.79859459]},"properties":{"location_id":106,"sensor_description":"Kathleen Syme Library Cafe","sensor_name":"KatLib3_T","installation_date":"2018-02-02","note":null,"location_type":"Indoor","status":"A","direction_1":"In","direction_2":"Out","latitude":-37.79859459,"longitude":144.96510921}},{"type":"Feature","geometry":{"type":"Point","coordinates":[144.95690188,-37.81246271]},"properties":{"location_id":107,"sensor_description":"Flagstaff station (East)","sensor_name":"280Will_T","installation_date":"2022-10-08","note":null,"location_type":"Outdoor","status":"A","direction_1":"North","direction_2":"South","latitude":-37.81246271,"longitude":144.95690188}},{"type":"Feature","geometry":{"type":"Point","coordinates":[144.95621105,-37.81193681]},"properties":{"location_id":109,"sensor_description":"La Trobe St- William St (South)","sensor_name":"LatWill_T","installation_date":"2022-10-08","note":null,"location_type":"Outdoor","status":"A","direction_1":"East","direction_2":"West","latitude":-37.81193681,"longitude":144.95621105}},{"type":"Feature","geometry":{"type":"Point","coordinates":[144.97590204,-37.82102867]},"properties":{"location_id":110,"sensor_description":"Birrarung Marr East Entry","sensor_name":"BirBlix_T","installation_date":"2021-12-07","note":null,"location_type":"Outdoor Blix","status":"A","direction_1":null,"direction_2":null,"latitude":-37.82102867,"longitude":144.97590204}},{"type":"Feature","geometry":{"type":"Point","coordinates":[144.94436558,-37.81442577]},"properties":{"location_id":120,"sensor_description":"Harbour Esplanade","sensor_name":"HarbBlix_T","installation_date":"2021-03-25","note":null,"location_type":"Outdoor Blix","status":"A","direction_1":null,"direction_2":null,"latitude":-37.81442577,"longitude":144.94436558}},{"type":"Feature","geometry":{"type":"Point","coordinates":[144.97367212,-37.81849202]},"properties":{"location_id":127,"sensor_description":"Birrarung Marr - Federation Foot Bridge","sensor_name":"BirFedBlix_T","installation_date":"2023-03-23","note":null,"location_type":"Outdoor Blix","status":"A","direction_1":null,"direction_2":null,"latitude":-37.81849202,"longitude":144.97367212}},{"type":"Feature","geometry":{"type":"Point","coordinates":[144.95386444,-37.81267639]},"properties":{"location_id":132,"sensor_description":"I-Hub Corner of King Street and Latrobe Street (317-335 King)","sensor_name":"King335_T","installation_date":"2023-09-25","note":null,"location_type":"Outdoor","status":"A","direction_1":null,"direction_2":null,"latitude":-37.81267639,"longitude":144.95386444}},{"type":"Feature","geometry":{"type":"Point","coordinates":[144.95227769,-37.81531435]},"properties":{"location_id":133,"sensor_description":"I-Hub Southern Cross Station - Lonsdale Street Entrance - South","sensor_name":"Spen229_T","installation_date":"2023-09-25","note":null,"location_type":"Outdoor","status":"A","direction_1":null,"direction_2":null,"latitude":-37.81531435,"longitude":144.95227769}},{"type":"Feature","geometry":{"type":"Point","coordinates":[144.96516718,-37.81380668]},"properties":{"location_id":2,"sensor_description":"Bourke Street Mall (South)","sensor_name":"Bou283_T","installation_date":"2009-03-30","note":null,"location_type":"Outdoor","status":"A","direction_1":"East","direction_2":"West","latitude":-37.81380668,"longitude":144.96516718}},{"type":"Feature","geometry":{"type":"Point","coordinates":[144.9660878,-37.81487988]},"properties":{"location_id":4,"sensor_description":"Town Hall (West)","sensor_name":"Swa123_T","installation_date":"2009-03-23","note":null,"location_type":"Outdoor","status":"A","direction_1":"North","direction_2":"South","latitude":-37.81487988,"longitude":144.9660878}},{"type":"Feature","geometry":{"type":"Point","coordinates":[144.96558255,-37.81911705]},"properties":{"location_id":6,"sensor_description":"Flinders Street Station Underpass","sensor_name":"FliS_T","installation_date":"2009-03-25","note":"Upgraded on 8\/09\/21","location_type":"Outdoor","status":"A","direction_1":"North","direction_2":"South","latitude":-37.81911705,"longitude":144.96558255}},{"type":"Feature","geometry":{"type":"Point","coordinates":[144.9471751,-37.82293543]},"properties":{"location_id":8,"sensor_description":"Webb Bridge","sensor_name":"WebBN_T","installation_date":"2009-03-24","note":null,"location_type":"Outdoor","status":"A","direction_1":"North","direction_2":"South","latitude":-37.82293543,"longitude":144.9471751}},{"type":"Feature","geometry":{"type":"Point","coordinates":[144.94710545,-37.81876474]},"properties":{"location_id":10,"sensor_description":"Victoria Point","sensor_name":"BouHbr_T","installation_date":"2009-04-23","note":null,"location_type":"Outdoor","status":"A","direction_1":"East","direction_2":"West","latitude":-37.81876474,"longitude":144.94710545}},{"type":"Feature","geometry":{"type":"Point","coordinates":[144.93970694,-37.81564989]},"properties":{"location_id":11,"sensor_description":"Waterfront City","sensor_name":"WatCit_T","installation_date":"2009-01-20","note":null,"location_type":"Outdoor","status":"A","direction_1":"East","direction_2":"West","latitude":-37.81564989,"longitude":144.93970694}},{"type":"Feature","geometry":{"type":"Point","coordinates":[144.96291897,-37.82011242]},"properties":{"location_id":14,"sensor_description":"Sandridge Bridge","sensor_name":"SanBri_T","installation_date":"2009-03-24","note":"Sensor relocated to sensor ID 25 on 2\/10\/2019","location_type":"Outdoor","status":"A","direction_1":"North","direction_2":"South","latitude":-37.82011242,"longitude":144.96291897}},{"type":"Feature","geometry":{"type":"Point","coordinates":[144.96550671,-37.81237202]},"properties":{"location_id":19,"sensor_description":"Chinatown-Swanston St (North)","sensor_name":"LtB210_T","installation_date":"2013-09-02","note":"Pushbox Upgrade, 20\/07\/2023","location_type":"Outdoor","status":"A","direction_1":"East","direction_2":"West","latitude":-37.81237202,"longitude":144.96550671}},{"type":"Feature","geometry":{"type":"Point","coordinates":[144.9682466,-37.81172914]},"properties":{"location_id":20,"sensor_description":"Chinatown-Lt Bourke St (South)","sensor_name":"LtB170_T","installation_date":"2013-09-06","note":"Pushbox Upgrade, 20\/07\/2023","location_type":"Outdoor","status":"A","direction_1":"East","direction_2":"West","latitude":-37.81172914,"longitude":144.9682466}},{"type":"Feature","geometry":{"type":"Point","coordinates":[144.96049403,-37.80869543]},"properties":{"location_id":26,"sensor_description":"QV Market-Elizabeth St (West)","sensor_name":"Eli483_T","installation_date":"2013-09-28","note":"Pushbox Upgrade, 03\/07\/2023","location_type":"Outdoor","status":"A","direction_1":"North","direction_2":"South","latitude":-37.80869543,"longitude":144.96049403}},{"type":"Feature","geometry":{"type":"Point","coordinates":[144.95644692,-37.80606888]},"properties":{"location_id":27,"sensor_description":"QV Market-Peel St","sensor_name":"Vic_T","installation_date":"2013-08-16","note":null,"location_type":"Outdoor","status":"A","direction_1":"East","direction_2":"West","latitude":-37.80606888,"longitude":144.95644692}},{"type":"Feature","geometry":{"type":"Point","coordinates":[144.96863453,-37.81965809]},"properties":{"location_id":29,"sensor_description":"St Kilda Rd-Alexandra Gardens","sensor_name":"AG_T","installation_date":"2013-10-11","note":"sensor upgraded from laser to 3D on 19\/12\/2019","location_type":"Outdoor","status":"A","direction_1":"North","direction_2":"South","latitude":-37.81965809,"longitude":144.96863453}},{"type":"Feature","geometry":{"type":"Point","coordinates":[144.96508877,-37.82017828]},"properties":{"location_id":35,"sensor_description":"Southbank","sensor_name":"SouthB_T","installation_date":"2016-04-11","note":"Device replaced with two new sensors on 15-4-21","location_type":"Outdoor","status":"A","direction_1":"East","direction_2":"West","latitude":-37.82017828,"longitude":144.96508877}},{"type":"Feature","geometry":{"type":"Point","coordinates":[144.96995745,-37.81379749]},"properties":{"location_id":39,"sensor_description":"Alfred Place","sensor_name":"AlfPl_T","installation_date":"2019-12-04","note":"In 4\/12\/2019 sensor upgraded","location_type":"Outdoor","status":"A","direction_1":"North","direction_2":"South","latitude":-37.81379749,"longitude":144.96995745}},{"type":"Feature","geometry":{"type":"Point","coordinates":[144.96411782,-37.79844526]},"properties":{"location_id":43,"sensor_description":"Monash Rd-Swanston St (West)","sensor_name":"UM2_T","installation_date":"2015-04-15","note":null,"location_type":"Outdoor","status":"A","direction_1":"North","direction_2":"South","latitude":-37.79844526,"longitude":144.96411782}},{"type":"Feature","geometry":{"type":"Point","coordinates":[144.96220077,-37.81160332]},"properties":{"location_id":47,"sensor_description":"Melbourne Central-Elizabeth St (East)","sensor_name":"Eli250_T","installation_date":"2017-08-24","note":"Pushbox Upgrade, 25\/07\/2023","location_type":"Outdoor","status":"A","direction_1":"North","direction_2":"South","latitude":-37.81160332,"longitude":144.96220077}},{"type":"Feature","geometry":{"type":"Point","coordinates":[144.95906316,-37.80841815]},"properties":{"location_id":51,"sensor_description":"QVM-Franklin St (North)","sensor_name":"Fra118_T","installation_date":"2017-11-30","note":"Pushbox Upgrade, 20\/07\/2023","location_type":"Outdoor","status":"A","direction_1":"East","direction_2":"West","latitude":-37.80841815,"longitude":144.95906316}},{"type":"Feature","geometry":{"type":"Point","coordinates":[144.965499,-37.81564191]},"properties":{"location_id":53,"sensor_description":"Collins Street (North)","sensor_name":"Col254_T","installation_date":"2015-09-23","note":null,"location_type":"Outdoor","status":"A","direction_1":"East","direction_2":"West","latitude":-37.81564191,"longitude":144.965499}},{"type":"Feature","geometry":{"type":"Point","coordinates":[144.96308399,-37.804024]},"properties":{"location_id":54,"sensor_description":"Lincoln-Swanston (West)","sensor_name":"Swa607_T","installation_date":"2018-06-26","note":null,"location_type":"Outdoor","status":"A","direction_1":"North","direction_2":"South","latitude":-37.804024,"longitude":144.96308399}},{"type":"Feature","geometry":{"type":"Point","coordinates":[144.95358075,-37.81686075]},"properties":{"location_id":58,"sensor_description":"Bourke St - Spencer St (North)","sensor_name":"Bou688_T","installation_date":"2018-09-27","note":null,"location_type":"Outdoor","status":"A","direction_1":"East","direction_2":"West","latitude":-37.81686075,"longitude":144.95358075}},{"type":"Feature","geometry":{"type":"Point","coordinates":[144.96304859,-37.80825648]},"properties":{"location_id":59,"sensor_description":"Building 80 RMIT","sensor_name":"RMIT_T","installation_date":"2019-02-13","note":null,"location_type":"Outdoor","status":"A","direction_1":"North","direction_2":"South","latitude":-37.80825648,"longitude":144.96304859}},{"type":"Feature","geometry":{"type":"Point","coordinates":[144.95792282,-37.79949545]},"properties":{"location_id":64,"sensor_description":"Royal Pde - Grattan St","sensor_name":"Grat292_T","installation_date":"2020-01-16","note":null,"location_type":"Outdoor","status":"A","direction_1":"North","direction_2":"South","latitude":-37.79949545,"longitude":144.95792282}},{"type":"Feature","geometry":{"type":"Point","coordinates":[144.96872809,-37.81726338]},"properties":{"location_id":72,"sensor_description":"Flinders St- ACMI","sensor_name":"ACMI_T","installation_date":"2020-11-30","note":null,"location_type":"Outdoor","status":"A","direction_1":"East","direction_2":"West","latitude":-37.81726338,"longitude":144.96872809}},{"type":"Feature","geometry":{"type":"Point","coordinates":[144.95415373,-37.81695684]},"properties":{"location_id":73,"sensor_description":"Bourke St - Spencer St (South)","sensor_name":"Bou655_T","installation_date":null,"note":null,"location_type":"Outdoor","status":"A","direction_1":"East","direction_2":"West","latitude":-37.81695684,"longitude":144.95415373}},{"type":"Feature","geometry":{"type":"Point","coordinates":[144.93036194,-37.79453803]},"properties":{"location_id":76,"sensor_description":"Macaulay Rd- Bellair St","sensor_name":"KenMac_T","installation_date":"2021-02-20","note":null,"location_type":"Outdoor","status":"A","direction_1":"East","direction_2":"West","latitude":-37.79453803,"longitude":144.93036194}},{"type":"Feature","geometry":{"type":"Point","coordinates":[144.96616678,-37.81794046]},"properties":{"location_id":79,"sensor_description":"Flinders St (South)","sensor_name":"FliSS_T","installation_date":"2021-09-10","note":null,"location_type":"Outdoor","status":"A","direction_1":"East","direction_2":"West","latitude":-37.81794046,"longitude":144.96616678}},{"type":"Feature","geometry":{"type":"Point","coordinates":[144.96001735,-37.80680012]},"properties":{"location_id":82,"sensor_description":"510 Elizabeth Street - Main Entry","sensor_name":"Eli510_T","installation_date":"2021-11-05","note":null,"location_type":"Indoor","status":"A","direction_1":"In","direction_2":"Out","latitude":-37.80680012,"longitude":144.96001735}},{"type":"Feature","geometry":{"type":"Point","coordinates":[144.94908064,-37.80309992]},"properties":{"location_id":86,"sensor_description":"Queensberry St - Errol St (South)","sensor_name":"574Qub_T","installation_date":"2021-12-21","note":null,"location_type":"Outdoor","status":"A","direction_1":"East","direction_2":"West","latitude":-37.80309992,"longitude":144.94908064}},{"type":"Feature","geometry":{"type":"Point","coordinates":[144.94921863,-37.80454949]},"properties":{"location_id":87,"sensor_description":"Errol St (West)","sensor_name":"Errol23_T","installation_date":"2022-05-20","note":null,"location_type":"Outdoor","status":"A","direction_1":"North","direction_2":"South","latitude":-37.80454949,"longitude":144.94921863}},{"type":"Feature","geometry":{"type":"Point","coordinates":[144.96586575,-37.81685964]},"properties":{"location_id":89,"sensor_description":"City Library","sensor_name":"CityLi_T","installation_date":"2013-12-11","note":null,"location_type":"Indoor","status":"A","direction_1":"In","direction_2":"Out","latitude":-37.81685964,"longitude":144.96586575}},{"type":"Feature","geometry":{"type":"Point","coordinates":[144.98124662,-37.81303095]},"properties":{"location_id":94,"sensor_description":"Fitzroy Garden- The Conservatory","sensor_name":"FitConVis_T","installation_date":"2015-03-02","note":null,"location_type":"Indoor","status":"A","direction_1":"In","direction_2":"Out","latitude":-37.81303095,"longitude":144.98124662}},{"type":"Feature","geometry":{"type":"Point","coordinates":[144.97925064,-37.81499687]},"properties":{"location_id":96,"sensor_description":"Fitzroy Garden Visitor Centre Internal","sensor_name":"FitGarVisIInt_T","installation_date":"2015-03-02","note":"Pushbox Upgrade, 30\/06\/2023","location_type":"Indoor","status":"A","direction_1":null,"direction_2":null,"latitude":-37.81499687,"longitude":144.97925064}},{"type":"Feature","geometry":{"type":"Point","coordinates":[144.96548206,-37.79863553]},"properties":{"location_id":104,"sensor_description":"Kathleen Syme Library Main","sensor_name":"KatLib1_T","installation_date":"2018-02-02","note":null,"location_type":"Indoor","status":"A","direction_1":"In","direction_2":"Out","latitude":-37.79863553,"longitude":144.96548206}},{"type":"Feature","geometry":{"type":"Point","coordinates":[144.94436558,-37.81442577]},"properties":{"location_id":111,"sensor_description":"Harbour Esplanade","sensor_name":"HarbBlix_T","installation_date":"2021-03-25","note":null,"location_type":"Outdoor Blix","status":"A","direction_1":null,"direction_2":null,"latitude":-37.81442577,"longitude":144.94436558}},{"type":"Feature","geometry":{"type":"Point","coordinates":[144.95104583,-37.79505209]},"properties":{"location_id":121,"sensor_description":"Royal Park BBQ near the playground and public toilet facility - Gatehouse Street","sensor_name":"RoyBlix_T","installation_date":"2023-01-18","note":"Royal Park BBQ near the playground and public toilet facility, cnr Flemington Road and Gatehouse Street","location_type":"Outdoor Blix","status":"A","direction_1":null,"direction_2":null,"latitude":-37.79505209,"longitude":144.95104583}},{"type":"Feature","geometry":{"type":"Point","coordinates":[144.97169395,-37.81862929]},"properties":{"location_id":122,"sensor_description":"Birrarung Marr","sensor_name":"FedCycle_T","installation_date":"2022-08-23","note":null,"location_type":"Outdoor","status":"A","direction_1":"East","direction_2":"West","latitude":-37.81862929,"longitude":144.97169395}},{"type":"Feature","geometry":{"type":"Point","coordinates":[144.97329934,-37.81757416]},"properties":{"location_id":124,"sensor_description":"Birrarung Marr East - Batman Ave Bridge Entry","sensor_name":"BirBridge_T","installation_date":"2023-06-02","note":null,"location_type":"Outdoor","status":"A","direction_1":"North","direction_2":"South","latitude":-37.81757416,"longitude":144.97329934}},{"type":"Feature","geometry":{"type":"Point","coordinates":[144.97106055,-37.81858379]},"properties":{"location_id":126,"sensor_description":"Birrarung Marr - Artplay Toilet Block","sensor_name":"BirArtBlix_T","installation_date":"2023-03-16","note":null,"location_type":"Outdoor Blix","status":"A","direction_1":null,"direction_2":null,"latitude":-37.81858379,"longitude":144.97106055}},{"type":"Feature","geometry":{"type":"Point","coordinates":[144.97318692,-37.83122892]},"properties":{"location_id":128,"sensor_description":"Shrine of rememberance-South-West","sensor_name":"ShrineSW_T","installation_date":"2023-09-20","note":null,"location_type":"Outdoor Blix","status":"A","direction_1":null,"direction_2":null,"latitude":-37.83122892,"longitude":144.97318692}}]}